<?xml version="1.0" encoding="utf-8"?>
<markers>
	<marker name="African Pride" lat="-33.91403" lng="20.4288" category="green" address="" address2="" city="Trap green" state="14" postal="11" country="ZA" phone="22" email="syntagm@icon.co.za" web="http://www.syntagm.co.za/mapfly" hours1="SAST" hours2="" hours3="" featured="" />
	<marker name="Sapphire" lat="-33.9133" lng="20.42773" category="green" address="" address2="" city="Trap green" state="0" postal="2" country="ZA" phone="2" email="syntagm@icon.co.za" web="http://www.syntagm.co.za/mapfly" hours1="SAST" hours2="" hours3="" featured="" />
	<marker name="Nuweland" lat="-33.91288" lng="20.42877" category="green" address="" address2="" city="Trap green" state="0" postal="3" country="ZA" phone="3" email="syntagm@icon.co.za" web="http://www.syntagm.co.za/mapfly" hours1="SAST" hours2="" hours3="" featured="" />
	<marker name="Nuwe S and L" lat="-33.91273" lng="20.43004" category="green" address="" address2="" city="Trap green" state="0" postal="1" country="ZA" phone="44" email="syntagm@icon.co.za" web="http://www.syntagm.co.za/mapfly" hours1="SAST" hours2="" hours3="" featured="" />
	<marker name="Hange" lat="-33.91247" lng="20.42759" category="green" address="" address2="" city="Trap green" state="14" postal="2" country="ZA" phone="3" email="syntagm@icon.co.za" web="http://www.syntagm.co.za/mapfly" hours1="SAST" hours2="" hours3="" featured="" />
	<marker name="S and L" lat="-33.91355" lng="20.43097" category="green" address="" address2="" city="Trap green" state="0" postal="3" country="ZA" phone="4" email="syntagm@icon.co.za" web="http://www.syntagm.co.za/mapfly" hours1="SAST" hours2="" hours3="" featured="" />
	<marker name="Kakamas" lat="-33.91236" lng="20.43154" category="amber" address="" address2="" city="Trap amber" state="0" postal="1" country="ZA" phone="5" email="syntagm@icon.co.za" web="http://www.syntagm.co.za/mapfly" hours1="SAST" hours2="" hours3="" featured="" />
	<marker name="Kareebos" lat="-33.91347" lng="20.43283" category="amber" address="" address2="" city="Trap amber" state="0" postal="2" country="ZA" phone="6" email="syntagm@icon.co.za" web="http://www.syntagm.co.za/mapfly" hours1="SAST" hours2="" hours3="" featured="" />
	<marker name="Sandvliet" lat="-33.91312" lng="20.43354" category="amber" address="" address2="" city="Trap amber" state="0" postal="3" country="ZA" phone="" email="syntagm@icon.co.za" web="http://www.syntagm.co.za/mapfly" hours1="SAST" hours2="" hours3="" featured="" />
	<marker name="Jong Keisie" lat="-33.9146" lng="20.43577" category="amber" address="" address2="" city="Trap amber" state="0" postal="" country="ZA" phone="" email="syntagm@icon.co.za" web="http://www.syntagm.co.za/mapfly" hours1="SAST" hours2="" hours3="" featured="" />
	<marker name="Ou Keisie" lat="-33.91369" lng="20.43794" category="amber" address="" address2="" city="Trap amber" state="0" postal="" country="ZA" phone="" email="syntagm@icon.co.za" web="http://www.syntagm.co.za/mapfly" hours1="SAST" hours2="" hours3="" featured="" />
	<marker name="Imperial" lat="-33.91661" lng="20.43063" category="amber" address="" address2="" city="Trap amber" state="3" postal="" country="ZA" phone="" email="syntagm@icon.co.za" web="http://www.syntagm.co.za/mapfly" hours1="SAST" hours2="" hours3="" featured="" />
	<marker name="Skool Onder" lat="-33.91821" lng="20.43015" category="amber" address="" address2="" city="Trap amber" state="0" postal="" country="ZA" phone="" email="syntagm@icon.co.za" web="http://www.syntagm.co.za/mapfly" hours1="SAST" hours2="" hours3="" featured="" />
	<marker name="Skool Middel" lat="-33.91854" lng="20.43074" category="amber" address="" address2="" city="Trap amber" state="0" postal="" country="ZA" phone="" email="syntagm@icon.co.za" web="http://www.syntagm.co.za/mapfly" hours1="SAST" hours2="" hours3="" featured="" />
	<marker name="WW Keisie" lat="-33.92336" lng="20.43194" category="amber" address="" address2="" city="Trap amber" state="0" postal="" country="ZA" phone="" email="syntagm@icon.co.za" web="http://www.syntagm.co.za/mapfly" hours1="SAST" hours2="" hours3="" featured="" />
	<marker name="Fantasy" lat="-33.92219" lng="20.43115" category="amber" address="" address2="" city="Trap amber" state="14" postal="" country="ZA" phone="" email="syntagm@icon.co.za" web="http://www.syntagm.co.za/mapfly" hours1="SAST" hours2="" hours3="" featured="" />
	<marker name="Supreme" lat="-33.93066" lng="20.43647" category="amber" address="" address2="" city="Trap amber" state="0" postal="" country="ZA" phone="" email="syntagm@icon.co.za" web="http://www.syntagm.co.za/mapfly" hours1="SAST" hours2="" hours3="" featured="" />
	<marker name="Cascade" lat="-33.93131" lng="20.43554" category="amber" address="" address2="" city="Trap amber" state="14" postal="" country="ZA" phone="" email="syntagm@icon.co.za" web="http://www.syntagm.co.za/mapfly" hours1="SAST" hours2="" hours3="" featured="" />
	<marker name="Bulida" lat="-33.90584" lng="20.40483" category="amber" address="" address2="" city="Trap amber" state="14" postal="" country="ZA" phone="" email="syntagm@icon.co.za" web="http://www.syntagm.co.za/mapfly" hours1="SAST" hours2="" hours3="" featured="" />
	<marker name="Malherbe" lat="-33.90537" lng="20.4032" category="amber" address="" address2="" city="Trap amber" state="0" postal="" country="ZA" phone="" email="syntagm@icon.co.za" web="http://www.syntagm.co.za/mapfly" hours1="SAST" hours2="" hours3="" featured="" />
	<marker name="Southern Bell 01" lat="-33.90574" lng="20.40338" category="red" address="" address2="" city="Trap red" state="0" postal="" country="ZA" phone="" email="syntagm@icon.co.za" web="http://www.syntagm.co.za/mapfly" hours1="SAST" hours2="" hours3="" featured="" />
	<marker name="Colombard" lat="-33.90693" lng="20.40362" category="red" address="" address2="" city="Trap red" state="14" postal="" country="ZA" phone="" email="syntagm@icon.co.za" web="http://www.syntagm.co.za/mapfly" hours1="SAST" hours2="" hours3="" featured="" />
	<marker name="Southern Bell 02" lat="-33.90682" lng="20.40512" category="red" address="" address2="" city="Trap red" state="0" postal="" country="ZA" phone="" email="syntagm@icon.co.za" web="http://www.syntagm.co.za/mapfly" hours1="SAST" hours2="" hours3="" featured="" />
	<marker name="Stellgrape01" lat="-33.86253" lng="18.81876" category="red" address="" address2="" city="Trap red" state="0" postal="" country="ZA" phone="" email="syntagm@icon.co.za" web="http://www.syntagm.co.za/mapfly" hours1="SAST" hours2="" hours3="" featured="" />
	<marker name="Stellgrape02" lat="-33.8621" lng="18.82014" category="red" address="" address2="" city="Trap red" state="0" postal="" country="ZA" phone="" email="syntagm@icon.co.za" web="http://www.syntagm.co.za/mapfly" hours1="SAST" hours2="" hours3="" featured="" />
	<marker name="Stellgrape03" lat="-33.86111" lng="18.83452" category="red" address="" address2="" city="Trap red" state="0" postal="" country="ZA" phone="" email="syntagm@icon.co.za" web="http://www.syntagm.co.za/mapfly" hours1="SAST" hours2="" hours3="" featured="" />
	<marker name="Stellgrape04" lat="-33.86004" lng="18.82718" category="red" address="" address2="" city="Trap red" state="0" postal="" country="ZA" phone="" email="syntagm@icon.co.za" web="http://www.syntagm.co.za/mapfly" hours1="SAST" hours2="" hours3="" featured="" />
	<marker name="Stellgrape05" lat="-33.86018" lng="18.82898" category="red" address="" address2="" city="Trap red" state="0" postal="" country="ZA" phone="" email="syntagm@icon.co.za" web="http://www.syntagm.co.za/mapfly" hours1="SAST" hours2="" hours3="" featured="" />
	<marker name="Stellgrape06" lat="-33.86054" lng="18.83061" category="red" address="" address2="" city="Trap red" state="0" postal="" country="ZA" phone="" email="syntagm@icon.co.za" web="http://www.syntagm.co.za/mapfly" hours1="SAST" hours2="" hours3="" featured="" />
	<marker name="Stellgrape07" lat="-33.82769" lng="18.82769" category="red" address="" address2="" city="Trap red" state="0" postal="" country="ZA" phone="" email="syntagm@icon.co.za" web="http://www.syntagm.co.za/mapfly" hours1="SAST" hours2="" hours3="" featured="" />
</markers>