<?xml version="1.0" encoding="utf-8"?>
<markers>
	<marker name="African Pride" lat="-33.91403" lng="20.42880" category="FlyTrap1" address="" address2="" city="Trap 1" state="11" postal="8 Oct" country="ZA" phone="0824567031" email="syntagm@icon.co.za" web="http://www.syntagm.co.za/appfly" hours1="SAST" hours2="" hours3="" featured="" />
	<marker name="Sapphire" lat="-33.91330" lng="20.42773" category="FlyTrap2" address="" address2="" city="Trap 2" state="9" postal="8 Oct" country="ZA" phone="0824567031" email="syntagm@icon.co.za" web="http://www.syntagm.co.za/appfly" hours1="SAST" hours2="" hours3="" featured="" />
	<marker name="Nuweland" lat="-33.91288" lng="20.42877" category="FlyTrap3" address="" address2="" city="Trap 3" state="3" postal="8 Oct" country="ZA" phone="0824567031" email="syntagm@icon.co.za" web="http://www.syntagm.co.za/appfly" hours1="SAST" hours2="" hours3="" featured="" />
	<marker name="Nuwe SandL" lat="-33.91273" lng="20.43004" category="FlyTrap4" address="" address2="" city="Trap 4" state="11" postal="8 Oct" country="ZA" phone="0824567031" email="syntagm@icon.co.za" web="http://www.syntagm.co.za/appfly" hours1="SAST" hours2="" hours3="" featured="" />
	<marker name="Hange" lat="-33.91247" lng="20.42759" category="FlyTrap5" address="" address2="" city="Trap 5" state="4" postal="8 Oct" country="ZA" phone="0824567031" email="syntagm@icon.co.za" web="http://www.syntagm.co.za/appfly" hours1="SAST" hours2="" hours3="" featured="" />
	<marker name="SandL" lat="-33.91355" lng="43097" category="FlyTrap6" address="" address2="" city="Trap 6" state="3" postal="8 Oct" country="ZA" phone="0824567031" email="syntagm@icon.co.za" web="http://www.syntagm.co.za/appfly" hours1="SAST" hours2="" hours3="" featured="" />
	<marker name="Kakamas" lat="-33.91236" lng="20.43154" category="FlyTrap7" address="" address2="" city="Trap 7" state="0" postal="8 Oct" country="ZA" phone="0824567031" email="syntagm@icon.co.za" web="http://www.syntagm.co.za/appfly" hours1="Mon-Sun 11am-10pm" hours2="" hours3="" featured="" />		
</markers>
